[
  {"name":"Annerley","slug":"annerley","lga":"Brisbane City","state":"QLD","lat":-27.512449,"lng":153.032345,"distance":4.78},
  {"name":"Albion","slug":"albion","lga":"Brisbane City","state":"QLD","lat":-27.432636,"lng":153.043558,"distance":4.504},
  {"name":"Alderley","slug":"alderley","lga":"Brisbane City","state":"QLD","lat":-27.425278,"lng":153.001007,"distance":5.478},
  {"name":"Acacia Ridge","slug":"acacia-ridge","lga":"Brisbane City","state":"QLD","lat":-27.585366,"lng":153.023585,"distance":12.807},
  {"name":"Archerfield","slug":"archerfield","lga":"Brisbane City","state":"QLD","lat":-27.568534,"lng":153.011278,"distance":11.026},
  {"name":"Anstead","slug":"anstead","lga":"Brisbane City","state":"QLD","lat":-27.53782,"lng":152.86162,"distance":17.825},
  {"name":"Algester","slug":"algester","lga":"Brisbane City","state":"QLD","lat":-27.61274,"lng":153.032546,"distance":15.857},
  {"name":"Bald Hills","slug":"bald-hills","lga":"Brisbane City","state":"QLD","lat":-27.306469,"lng":153.019892,"distance":18.106},
  {"name":"Ascot","slug":"ascot","lga":"Brisbane City","state":"QLD","lat":-27.42975,"lng":153.065175,"distance":5.949},
  {"name":"Ashgrove","slug":"ashgrove","lga":"Brisbane City","state":"QLD","lat":-27.443107,"lng":152.983982,"distance":5.027},
  {"name":"Aspley","slug":"aspley","lga":"Brisbane City","state":"QLD","lat":-27.36666,"lng":153.017934,"distance":11.451},
  {"name":"Auchenflower","slug":"auchenflower","lga":"Brisbane City","state":"QLD","lat":-27.473929,"lng":152.995195,"distance":2.991},
  {"name":"Balmoral","slug":"balmoral","lga":"Brisbane City","state":"QLD","lat":-27.456398,"lng":153.067713,"distance":4.466},
  {"name":"Banks Creek","slug":"banks-creek","lga":"Brisbane City","state":"QLD","lat":-27.379594,"lng":152.749359,"distance":29.04},
  {"name":"Banyo","slug":"banyo","lga":"Brisbane City","state":"QLD","lat":-27.379145,"lng":153.082392,"distance":11.533},
  {"name":"Bardon","slug":"bardon","lga":"Brisbane City","state":"QLD","lat":-27.460071,"lng":152.978179,"distance":4.761},
  {"name":"Bellbowrie","slug":"bellbowrie","lga":"Brisbane City","state":"QLD","lat":-27.559165,"lng":152.883516,"distance":17.139},
  {"name":"Belmont","slug":"belmont","lga":"Brisbane City","state":"QLD","lat":-27.509076,"lng":153.133461,"distance":11.559},
  {"name":"Boondall","slug":"boondall","lga":"Brisbane City","state":"QLD","lat":-27.349057,"lng":153.069421,"distance":14.079},
  {"name":"Bridgeman Downs","slug":"bridgeman-downs","lga":"Brisbane City","state":"QLD","lat":-27.351406,"lng":152.99427,"distance":13.469},
  {"name":"Bowen Hills","slug":"bowen-hills","lga":"Brisbane City","state":"QLD","lat":-27.444734,"lng":153.03667,"distance":3.004},
  {"name":"Bracken Ridge","slug":"bracken-ridge","lga":"Brisbane City","state":"QLD","lat":-27.319829,"lng":153.033854,"distance":16.641},
  {"name":"Brighton","slug":"brighton","lga":"Brisbane City","state":"QLD","lat":-27.296221,"lng":153.057148,"distance":19.494},
  {"name":"Brisbane Airport","slug":"brisbane-airport","lga":"Brisbane City","state":"QLD","lat":-27.388371,"lng":153.113205,"distance":12.542},
  {"name":"Brisbane City","slug":"brisbane-city","lga":"Brisbane City","state":"QLD","lat":-27.469776,"lng":153.025142,"distance":0.005},
  {"name":"Bulimba","slug":"bulimba","lga":"Brisbane City","state":"QLD","lat":-27.447955,"lng":153.059209,"distance":4.151},
  {"name":"Bulwer","slug":"bulwer","lga":"Brisbane City","state":"QLD","lat":-27.078752,"lng":153.369452,"distance":55.137},
  {"name":"Brookfield","slug":"brookfield","lga":"Brisbane City","state":"QLD","lat":-27.483487,"lng":152.903483,"distance":12.115},
  {"name":"Burbank","slug":"burbank","lga":"Brisbane City","state":"QLD","lat":-27.561223,"lng":153.160365,"distance":16.77},
  {"name":"Camp Hill","slug":"camp-hill","lga":"Brisbane City","state":"QLD","lat":-27.49579,"lng":153.077848,"distance":5.956},
  {"name":"Cannon Hill","slug":"cannon-hill","lga":"Brisbane City","state":"QLD","lat":-27.472364,"lng":153.094945,"distance":6.909},
  {"name":"Calamvale","slug":"calamvale","lga":"Brisbane City","state":"QLD","lat":-27.622582,"lng":153.048209,"distance":17.083},
  {"name":"Clayfield","slug":"clayfield","lga":"Brisbane City","state":"QLD","lat":-27.419354,"lng":153.054129,"distance":6.284},
  {"name":"Carina Heights","slug":"carina-heights","lga":"Brisbane City","state":"QLD","lat":-27.507442,"lng":153.091091,"distance":7.741},
  {"name":"Carina","slug":"carina","lga":"Brisbane City","state":"QLD","lat":-27.487787,"lng":153.099007,"distance":7.571},
  {"name":"Carindale","slug":"carindale","lga":"Brisbane City","state":"QLD","lat":-27.511537,"lng":153.11298,"distance":9.839},
  {"name":"Chandler","slug":"chandler","lga":"Brisbane City","state":"QLD","lat":-27.515,"lng":153.168415,"distance":15.022},
  {"name":"Chapel Hill","slug":"chapel-hill","lga":"Brisbane City","state":"QLD","lat":-27.498681,"lng":152.948747,"distance":8.196},
  {"name":"Carseldine","slug":"carseldine","lga":"Brisbane City","state":"QLD","lat":-27.346253,"lng":153.016053,"distance":13.719},
  {"name":"Chuwar","slug":"chuwar","lga":"Brisbane City","state":"QLD","lat":-27.547248,"lng":152.773543,"distance":26.295},
  {"name":"Chelmer","slug":"chelmer","lga":"Brisbane City","state":"QLD","lat":-27.512845,"lng":152.975269,"distance":6.856},
  {"name":"Chermside West","slug":"chermside-west","lga":"Brisbane City","state":"QLD","lat":-27.383702,"lng":153.012436,"distance":9.622},
  {"name":"Chermside","slug":"chermside","lga":"Brisbane City","state":"QLD","lat":-27.385126,"lng":153.032292,"distance":9.41},
  {"name":"Coorparoo","slug":"coorparoo","lga":"Brisbane City","state":"QLD","lat":-27.499082,"lng":153.061534,"distance":4.847},
  {"name":"Coopers Plains","slug":"coopers-plains","lga":"Brisbane City","state":"QLD","lat":-27.56615,"lng":153.036908,"distance":10.74},
  {"name":"Heathwood","slug":"heathwood","lga":"Brisbane City","state":"QLD","lat":-27.63986,"lng":152.988389,"distance":19.19},
  {"name":"Hemmant","slug":"hemmant","lga":"Brisbane City","state":"QLD","lat":-27.446588,"lng":153.131299,"distance":10.808},
  {"name":"Hawthorne","slug":"hawthorne","lga":"Brisbane City","state":"QLD","lat":-27.46376,"lng":153.058677,"distance":3.386},
  {"name":"Eight Mile Plains","slug":"eight-mile-plains","lga":"Brisbane City","state":"QLD","lat":-27.579786,"lng":153.092674,"distance":13.896},
  {"name":"Ferny Grove","slug":"ferny-grove","lga":"Brisbane City","state":"QLD","lat":-27.403419,"lng":152.927477,"distance":12.135},
  {"name":"Mount Gravatt East","slug":"mount-gravatt-east","lga":"Brisbane City","state":"QLD","lat":-27.529982,"lng":153.087185,"distance":9.061},
  {"name":"Mount Gravatt","slug":"mount-gravatt","lga":"Brisbane City","state":"QLD","lat":-27.540232,"lng":153.071575,"distance":9.055},
  {"name":"England Creek","slug":"england-creek","lga":"Brisbane City","state":"QLD","lat":-27.345311,"lng":152.727791,"distance":32.477},
  {"name":"Enoggera Reservoir","slug":"enoggera-reservoir","lga":"Brisbane City","state":"QLD","lat":-27.433387,"lng":152.870674,"distance":15.79},
  {"name":"Enoggera","slug":"enoggera","lga":"Brisbane City","state":"QLD","lat":-27.428395,"lng":152.973815,"distance":6.838},
  {"name":"Cowan Cowan","slug":"cowan-cowan","lga":"Brisbane City","state":"QLD","lat":-27.125834,"lng":153.366234,"distance":50.922},
  {"name":"Milton","slug":"milton","lga":"Brisbane City","state":"QLD","lat":-27.468629,"lng":153.005163,"distance":1.975},
  {"name":"Newstead","slug":"newstead","lga":"Brisbane City","state":"QLD","lat":-27.447633,"lng":153.044968,"distance":3.145},
  {"name":"Corinda","slug":"corinda","lga":"Brisbane City","state":"QLD","lat":-27.543565,"lng":152.982359,"distance":9.2},
  {"name":"Durack","slug":"durack","lga":"Brisbane City","state":"QLD","lat":-27.589518,"lng":152.986128,"distance":13.813},
  {"name":"Dutton Park","slug":"dutton-park","lga":"Brisbane City","state":"QLD","lat":-27.495463,"lng":153.025846,"distance":2.845},
  {"name":"Mitchelton","slug":"mitchelton","lga":"Brisbane City","state":"QLD","lat":-27.411942,"lng":152.970389,"distance":8.388},
  {"name":"Moggill","slug":"moggill","lga":"Brisbane City","state":"QLD","lat":-27.579891,"lng":152.877143,"distance":19.039},
  {"name":"New Farm","slug":"new-farm","lga":"Brisbane City","state":"QLD","lat":-27.467478,"lng":153.046235,"distance":2.105},
  {"name":"Eagle Farm","slug":"eagle-farm","lga":"Brisbane City","state":"QLD","lat":-27.433047,"lng":153.090324,"distance":7.626},
  {"name":"East Brisbane","slug":"east-brisbane","lga":"Brisbane City","state":"QLD","lat":-27.483343,"lng":153.046723,"distance":2.611},
  {"name":"Newmarket","slug":"newmarket","lga":"Brisbane City","state":"QLD","lat":-27.435282,"lng":153.007912,"distance":4.185},
  {"name":"Norman Park","slug":"norman-park","lga":"Brisbane City","state":"QLD","lat":-27.479133,"lng":153.061725,"distance":3.765},
  {"name":"Everton Park","slug":"everton-park","lga":"Brisbane City","state":"QLD","lat":-27.400369,"lng":152.987663,"distance":8.538},
  {"name":"Darra","slug":"darra","lga":"Brisbane City","state":"QLD","lat":-27.568327,"lng":152.952469,"distance":13.065},
  {"name":"Deagon","slug":"deagon","lga":"Brisbane City","state":"QLD","lat":-27.327814,"lng":153.058854,"distance":16.084},
  {"name":"Fig Tree Pocket","slug":"fig-tree-pocket","lga":"Brisbane City","state":"QLD","lat":-27.528494,"lng":152.962353,"distance":8.986},
  {"name":"Mount Coot-tha","slug":"mount-coot-tha","lga":"Brisbane City","state":"QLD","lat":-27.474739,"lng":152.948591,"distance":7.582},
  {"name":"Drewvale","slug":"drewvale","lga":"Brisbane City","state":"QLD","lat":-27.647724,"lng":153.054759,"distance":19.933},
  {"name":"Forest Lake","slug":"forest-lake","lga":"Brisbane City","state":"QLD","lat":-27.621664,"lng":152.963351,"distance":17.9},
  {"name":"Mount Crosby","slug":"mount-crosby","lga":"Brisbane City","state":"QLD","lat":-27.528461,"lng":152.811249,"distance":22.108},
  {"name":"Fitzgibbon","slug":"fitzgibbon","lga":"Brisbane City","state":"QLD","lat":-27.338784,"lng":153.031819,"distance":14.533},
  {"name":"Ellen Grove","slug":"ellen-grove","lga":"Brisbane City","state":"QLD","lat":-27.61536,"lng":152.943895,"distance":18.014},
  {"name":"Holland Park West","slug":"holland-park-west","lga":"Brisbane City","state":"QLD","lat":-27.526637,"lng":153.061032,"distance":7.23},
  {"name":"Holland Park","slug":"holland-park","lga":"Brisbane City","state":"QLD","lat":-27.51878,"lng":153.070805,"distance":7.061},
  {"name":"Fortitude Valley","slug":"fortitude-valley","lga":"Brisbane City","state":"QLD","lat":-27.456789,"lng":153.0356,"distance":1.776},
  {"name":"Hamilton","slug":"hamilton","lga":"Brisbane City","state":"QLD","lat":-27.439351,"lng":153.068307,"distance":5.443},
  {"name":"Gaythorne","slug":"gaythorne","lga":"Brisbane City","state":"QLD","lat":-27.416607,"lng":152.981724,"distance":7.289},
  {"name":"Geebung","slug":"geebung","lga":"Brisbane City","state":"QLD","lat":-27.372066,"lng":153.04818,"distance":11.068},
  {"name":"Doolandella","slug":"doolandella","lga":"Brisbane City","state":"QLD","lat":-27.613197,"lng":152.98561,"distance":16.362},
  {"name":"Gordon Park","slug":"gordon-park","lga":"Brisbane City","state":"QLD","lat":-27.416549,"lng":153.02756,"distance":5.906},
  {"name":"Highgate Hill","slug":"highgate-hill","lga":"Brisbane City","state":"QLD","lat":-27.487678,"lng":153.017282,"distance":2.126},
  {"name":"Fairfield","slug":"fairfield","lga":"Brisbane City","state":"QLD","lat":-27.506664,"lng":153.023345,"distance":4.089},
  {"name":"Graceville","slug":"graceville","lga":"Brisbane City","state":"QLD","lat":-27.521706,"lng":152.982124,"distance":7.15},
  {"name":"Hendra","slug":"hendra","lga":"Brisbane City","state":"QLD","lat":-27.418159,"lng":153.070619,"distance":7.28},
  {"name":"Herston","slug":"herston","lga":"Brisbane City","state":"QLD","lat":-27.448437,"lng":153.02196,"distance":2.387},
  {"name":"Inala","slug":"inala","lga":"Brisbane City","state":"QLD","lat":-27.594558,"lng":152.97121,"distance":14.814},
  {"name":"Indooroopilly","slug":"indooroopilly","lga":"Brisbane City","state":"QLD","lat":-27.507341,"lng":152.979801,"distance":6.111},
  {"name":"Grange","slug":"grange","lga":"Brisbane City","state":"QLD","lat":-27.422516,"lng":153.015326,"distance":5.328},
  {"name":"Greenslopes","slug":"greenslopes","lga":"Brisbane City","state":"QLD","lat":-27.509303,"lng":153.047934,"distance":4.925},
  {"name":"Gumdale","slug":"gumdale","lga":"Brisbane City","state":"QLD","lat":-27.495903,"lng":153.157198,"distance":13.371},
  {"name":"Jindalee","slug":"jindalee","lga":"Brisbane City","state":"QLD","lat":-27.53399,"lng":152.938202,"distance":11.15},
  {"name":"Jamboree Heights","slug":"jamboree-heights","lga":"Brisbane City","state":"QLD","lat":-27.556293,"lng":152.934056,"distance":13.144},
  {"name":"Kholo","slug":"kholo","lga":"Brisbane City","state":"QLD","lat":-27.512012,"lng":152.781257,"distance":24.546},
  {"name":"MacGregor","slug":"macgregor","lga":"Brisbane City","state":"QLD","lat":-27.565496,"lng":153.073423,"distance":11.629},
  {"name":"Upper Kedron","slug":"upper-kedron","lga":"Brisbane City","state":"QLD","lat":-27.418402,"lng":152.916739,"distance":12.133},
  {"name":"Mackenzie","slug":"mackenzie","lga":"Brisbane City","state":"QLD","lat":-27.540396,"lng":153.128727,"distance":12.886},
  {"name":"Sunnybank Hills","slug":"sunnybank-hills","lga":"Brisbane City","state":"QLD","lat":-27.596159,"lng":153.052373,"distance":14.259},
  {"name":"Sunnybank","slug":"sunnybank","lga":"Brisbane City","state":"QLD","lat":-27.578177,"lng":153.059373,"distance":12.478},
  {"name":"South Brisbane","slug":"south-brisbane","lga":"Brisbane City","state":"QLD","lat":-27.478067,"lng":153.019412,"distance":1.075},
  {"name":"Tingalpa","slug":"tingalpa","lga":"Brisbane City","state":"QLD","lat":-27.473547,"lng":153.127145,"distance":10.094},
  {"name":"Upper Brookfield","slug":"upper-brookfield","lga":"Brisbane City","state":"QLD","lat":-27.473013,"lng":152.851108,"distance":17.201},
  {"name":"Stretton","slug":"stretton","lga":"Brisbane City","state":"QLD","lat":-27.623902,"lng":153.067349,"distance":17.579},
  {"name":"Lytton","slug":"lytton","lga":"Brisbane City","state":"QLD","lat":-27.422304,"lng":153.150642,"distance":13.481},
  {"name":"Taigum","slug":"taigum","lga":"Brisbane City","state":"QLD","lat":-27.342529,"lng":153.046591,"distance":14.262},
  {"name":"Kalinga","slug":"kalinga","lga":"Brisbane City","state":"QLD","lat":-27.41001,"lng":153.047573,"distance":6.988},
  {"name":"Kooringal","slug":"kooringal","lga":"Brisbane City","state":"QLD","lat":-27.350679,"lng":153.420518,"distance":41.272},
  {"name":"Stones Corner","slug":"stones-corner","lga":"Brisbane City","state":"QLD","lat":-27.499432,"lng":153.046663,"distance":3.914},
  {"name":"McDowall","slug":"mcdowall","lga":"Brisbane City","state":"QLD","lat":-27.381565,"lng":152.992176,"distance":10.305},
  {"name":"Keperra","slug":"keperra","lga":"Brisbane City","state":"QLD","lat":-27.414622,"lng":152.950924,"distance":9.548},
  {"name":"Sumner","slug":"sumner","lga":"Brisbane City","state":"QLD","lat":-27.565486,"lng":152.933339,"distance":13.95},
  {"name":"Larapinta","slug":"larapinta","lga":"Brisbane City","state":"QLD","lat":-27.641594,"lng":153.009472,"distance":19.099},
  {"name":"Mount Ommaney","slug":"mount-ommaney","lga":"Brisbane City","state":"QLD","lat":-27.546058,"lng":152.93216,"distance":12.479},
  {"name":"Moreton Island","slug":"moreton-island","lga":"Brisbane City","state":"QLD","lat":-27.148364,"lng":153.406428,"distance":51.897},
  {"name":"Morningside","slug":"morningside","lga":"Brisbane City","state":"QLD","lat":-27.461569,"lng":153.076495,"distance":5.161},
  {"name":"Lake Manchester","slug":"lake-manchester","lga":"Brisbane City","state":"QLD","lat":-27.444965,"lng":152.779434,"distance":24.44},
  {"name":"Nathan","slug":"nathan","lga":"Brisbane City","state":"QLD","lat":-27.548672,"lng":153.053184,"distance":9.17},
  {"name":"Kangaroo Point","slug":"kangaroo-point","lga":"Brisbane City","state":"QLD","lat":-27.475441,"lng":153.036157,"distance":1.259},
  {"name":"Karana Downs","slug":"karana-downs","lga":"Brisbane City","state":"QLD","lat":-27.542208,"lng":152.819005,"distance":21.887},
  {"name":"Kenmore Hills","slug":"kenmore-hills","lga":"Brisbane City","state":"QLD","lat":-27.494729,"lng":152.92784,"distance":10.001},
  {"name":"Kenmore","slug":"kenmore","lga":"Brisbane City","state":"QLD","lat":-27.516545,"lng":152.937948,"distance":10.05},
  {"name":"Kuraby","slug":"kuraby","lga":"Brisbane City","state":"QLD","lat":-27.607205,"lng":153.093566,"distance":16.66},
  {"name":"Karawatha","slug":"karawatha","lga":"Brisbane City","state":"QLD","lat":-27.63476,"lng":153.081932,"distance":19.122},
  {"name":"Manly West","slug":"manly-west","lga":"Brisbane City","state":"QLD","lat":-27.467151,"lng":153.166302,"distance":13.96},
  {"name":"Manly","slug":"manly","lga":"Brisbane City","state":"QLD","lat":-27.453663,"lng":153.187163,"distance":16.119},
  {"name":"Mansfield","slug":"mansfield","lga":"Brisbane City","state":"QLD","lat":-27.53555,"lng":153.104212,"distance":10.686},
  {"name":"Lota","slug":"lota","lga":"Brisbane City","state":"QLD","lat":-27.468151,"lng":153.190826,"distance":16.381},
  {"name":"Lutwyche","slug":"lutwyche","lga":"Brisbane City","state":"QLD","lat":-27.421817,"lng":153.032633,"distance":5.369},
  {"name":"Kedron","slug":"kedron","lga":"Brisbane City","state":"QLD","lat":-27.403962,"lng":153.030765,"distance":7.317},
  {"name":"Kelvin Grove","slug":"kelvin-grove","lga":"Brisbane City","state":"QLD","lat":-27.449239,"lng":153.012033,"distance":2.619},
  {"name":"Murarrie","slug":"murarrie","lga":"Brisbane City","state":"QLD","lat":-27.452451,"lng":153.108418,"distance":8.457},
  {"name":"Nudgee Beach","slug":"nudgee-beach","lga":"Brisbane City","state":"QLD","lat":-27.349287,"lng":153.096052,"distance":15.085},
  {"name":"Nudgee","slug":"nudgee","lga":"Brisbane City","state":"QLD","lat":-27.369352,"lng":153.091374,"distance":12.917},
  {"name":"Nundah","slug":"nundah","lga":"Brisbane City","state":"QLD","lat":-27.402904,"lng":153.063119,"distance":8.311},
  {"name":"Moorooka","slug":"moorooka","lga":"Brisbane City","state":"QLD","lat":-27.53426,"lng":153.024563,"distance":7.143},
  {"name":"Northgate","slug":"northgate","lga":"Brisbane City","state":"QLD","lat":-27.391548,"lng":153.073487,"distance":9.903},
  {"name":"Middle Park","slug":"middle-park","lga":"Brisbane City","state":"QLD","lat":-27.555977,"lng":152.922262,"distance":13.944},
  {"name":"Petrie Terrace","slug":"petrie-terrace","lga":"Brisbane City","state":"QLD","lat":-27.463208,"lng":153.013183,"distance":1.386},
  {"name":"Red Hill","slug":"red-hill","lga":"Brisbane City","state":"QLD","lat":-27.452134,"lng":153.002394,"distance":2.978},
  {"name":"Wynnum West","slug":"wynnum-west","lga":"Brisbane City","state":"QLD","lat":-27.452254,"lng":153.151796,"distance":12.674},
  {"name":"Wynnum","slug":"wynnum","lga":"Brisbane City","state":"QLD","lat":-27.438076,"lng":153.169129,"distance":14.665},
  {"name":"Windsor","slug":"windsor","lga":"Brisbane City","state":"QLD","lat":-27.434453,"lng":153.030144,"distance":3.948},
  {"name":"Runcorn","slug":"runcorn","lga":"Brisbane City","state":"QLD","lat":-27.597937,"lng":153.076552,"distance":15.081},
  {"name":"Zillmere","slug":"zillmere","lga":"Brisbane City","state":"QLD","lat":-27.358242,"lng":153.039114,"distance":12.439},
  {"name":"Wavell Heights","slug":"wavell-heights","lga":"Brisbane City","state":"QLD","lat":-27.393885,"lng":153.046979,"distance":8.686},
  {"name":"Willawong","slug":"willawong","lga":"Brisbane City","state":"QLD","lat":-27.596358,"lng":153.006531,"distance":14.144},
  {"name":"Wishart","slug":"wishart","lga":"Brisbane City","state":"QLD","lat":-27.555042,"lng":153.101199,"distance":12.073},
  {"name":"Wooloowin","slug":"wooloowin","lga":"Brisbane City","state":"QLD","lat":-27.419369,"lng":153.042191,"distance":5.838},
  {"name":"Oxley","slug":"oxley","lga":"Brisbane City","state":"QLD","lat":-27.561813,"lng":152.975587,"distance":11.309},
  {"name":"Woolloongabba","slug":"woolloongabba","lga":"Brisbane City","state":"QLD","lat":-27.49294,"lng":153.036851,"distance":2.815},
  {"name":"Westlake","slug":"westlake","lga":"Brisbane City","state":"QLD","lat":-27.548421,"lng":152.912688,"distance":14.116},
  {"name":"Yeerongpilly","slug":"yeerongpilly","lga":"Brisbane City","state":"QLD","lat":-27.529539,"lng":153.012245,"distance":6.74},
  {"name":"Wilston","slug":"wilston","lga":"Brisbane City","state":"QLD","lat":-27.434659,"lng":153.018735,"distance":3.944},
  {"name":"Yeronga","slug":"yeronga","lga":"Brisbane City","state":"QLD","lat":-27.513421,"lng":153.012631,"distance":4.988},
  {"name":"Ransome","slug":"ransome","lga":"Brisbane City","state":"QLD","lat":-27.48667,"lng":153.182195,"distance":15.638},
  {"name":"Taringa","slug":"taringa","lga":"Brisbane City","state":"QLD","lat":-27.493347,"lng":152.981166,"distance":5.066},
  {"name":"Sherwood","slug":"sherwood","lga":"Brisbane City","state":"QLD","lat":-27.530843,"lng":152.981436,"distance":8.023},
  {"name":"Stafford Heights","slug":"stafford-heights","lga":"Brisbane City","state":"QLD","lat":-27.397468,"lng":153.008959,"distance":8.172},
  {"name":"Stafford","slug":"stafford","lga":"Brisbane City","state":"QLD","lat":-27.409642,"lng":153.010558,"distance":6.819},
  {"name":"The Gap","slug":"the-gap","lga":"Brisbane City","state":"QLD","lat":-27.445549,"lng":152.941474,"distance":8.692},
  {"name":"Rocklea","slug":"rocklea","lga":"Brisbane City","state":"QLD","lat":-27.551083,"lng":153.001821,"distance":9.296},
  {"name":"Pinjarra Hills","slug":"pinjarra-hills","lga":"Brisbane City","state":"QLD","lat":-27.537991,"lng":152.908669,"distance":13.764},
  {"name":"Pinkenba","slug":"pinkenba","lga":"Brisbane City","state":"QLD","lat":-27.397943,"lng":153.137265,"distance":13.652},
  {"name":"Port Of Brisbane","slug":"port-of-brisbane","lga":"Brisbane City","state":"QLD","lat":-27.390001,"lng":153.178203,"distance":17.531},
  {"name":"Riverhills","slug":"riverhills","lga":"Brisbane City","state":"QLD","lat":-27.561909,"lng":152.908724,"distance":15.375},
  {"name":"Richlands","slug":"richlands","lga":"Brisbane City","state":"QLD","lat":-27.588818,"lng":152.953531,"distance":14.964},
  {"name":"Seven Hills","slug":"seven-hills","lga":"Brisbane City","state":"QLD","lat":-27.479807,"lng":153.07804,"distance":5.349},
  {"name":"Seventeen Mile Rocks","slug":"seventeen-mile-rocks","lga":"Brisbane City","state":"QLD","lat":-27.548128,"lng":152.957239,"distance":10.968},
  {"name":"Pullenvale","slug":"pullenvale","lga":"Brisbane City","state":"QLD","lat":-27.517383,"lng":152.884126,"distance":14.895},
  {"name":"Salisbury","slug":"salisbury","lga":"Brisbane City","state":"QLD","lat":-27.549706,"lng":153.032976,"distance":8.889},
  {"name":"Paddington","slug":"paddington","lga":"Brisbane City","state":"QLD","lat":-27.460396,"lng":152.997554,"distance":2.915},
  {"name":"Robertson","slug":"robertson","lga":"Brisbane City","state":"QLD","lat":-27.564964,"lng":153.05709,"distance":11.009},
  {"name":"Rochedale","slug":"rochedale","lga":"Brisbane City","state":"QLD","lat":-27.570653,"lng":153.122817,"distance":14.768},
  {"name":"Pallara","slug":"pallara","lga":"Brisbane City","state":"QLD","lat":-27.619391,"lng":153.007294,"distance":16.67},
  {"name":"Sandgate","slug":"sandgate","lga":"Brisbane City","state":"QLD","lat":-27.31689,"lng":153.064877,"distance":17.395},
  {"name":"Parkinson","slug":"parkinson","lga":"Brisbane City","state":"QLD","lat":-27.642788,"lng":153.030321,"distance":19.176},
  {"name":"Upper Mount Gravatt","slug":"upper-mount-gravatt","lga":"Brisbane City","state":"QLD","lat":-27.55373,"lng":153.081195,"distance":10.827},
  {"name":"Toowong","slug":"toowong","lga":"Brisbane City","state":"QLD","lat":-27.481153,"lng":152.984181,"distance":4.235},
  {"name":"Spring Hill","slug":"spring-hill","lga":"Brisbane City","state":"QLD","lat":-27.459365,"lng":153.024376,"distance":1.159},
  {"name":"Shorncliffe","slug":"shorncliffe","lga":"Brisbane City","state":"QLD","lat":-27.327401,"lng":153.081594,"distance":16.739},
  {"name":"St Lucia","slug":"st-lucia","lga":"Brisbane City","state":"QLD","lat":-27.498997,"lng":153.00443,"distance":3.826},
  {"name":"Tarragindi","slug":"tarragindi","lga":"Brisbane City","state":"QLD","lat":-27.527085,"lng":153.045436,"distance":6.658},
  {"name":"Teneriffe","slug":"teneriffe","lga":"Brisbane City","state":"QLD","lat":-27.456118,"lng":153.048307,"distance":2.75},
  {"name":"Tennyson","slug":"tennyson","lga":"Brisbane City","state":"QLD","lat":-27.526863,"lng":153.000219,"distance":6.784},
  {"name":"Sinnamon Park","slug":"sinnamon-park","lga":"Brisbane City","state":"QLD","lat":-27.543893,"lng":152.94924,"distance":11.117},
  {"name":"West End","slug":"west-end","lga":"Brisbane City","state":"QLD","lat":-27.483804,"lng":153.005193,"distance":2.506},
  {"name":"Virginia","slug":"virginia","lga":"Brisbane City","state":"QLD","lat":-27.377321,"lng":153.063062,"distance":10.913},
  {"name":"Wacol","slug":"wacol","lga":"Brisbane City","state":"QLD","lat":-27.586915,"lng":152.92078,"distance":16.572},
  {"name":"Wakerley","slug":"wakerley","lga":"Brisbane City","state":"QLD","lat":-27.482776,"lng":153.15802,"distance":13.215},
  {"name":"Amberley","slug":"amberley","lga":"Ipswich City","state":"QLD","lat":-27.632088,"lng":152.695896,"distance":37.156},
  {"name":"Augustine Heights","slug":"augustine-heights","lga":"Ipswich City","state":"QLD","lat":-27.66141,"lng":152.880424,"distance":25.592},
  {"name":"Ashwell","slug":"ashwell","lga":"Ipswich City","state":"QLD","lat":-27.625375,"lng":152.55652,"distance":49.388},
  {"name":"Barellan Point","slug":"barellan-point","lga":"Ipswich City","state":"QLD","lat":-27.572008,"lng":152.843722,"distance":21.198},
  {"name":"Basin Pocket","slug":"basin-pocket","lga":"Ipswich City","state":"QLD","lat":-27.600976,"lng":152.770383,"distance":29.058},
  {"name":"Blacksoil","slug":"blacksoil","lga":"Ipswich City","state":"QLD","lat":-27.578022,"lng":152.706503,"distance":33.682},
  {"name":"Blackstone","slug":"blackstone","lga":"Ipswich City","state":"QLD","lat":-27.629846,"lng":152.803089,"distance":28.202},
  {"name":"Bellbird Park","slug":"bellbird-park","lga":"Ipswich City","state":"QLD","lat":-27.636716,"lng":152.886598,"distance":23.005},
  {"name":"Booval","slug":"booval","lga":"Ipswich City","state":"QLD","lat":-27.613652,"lng":152.79247,"distance":27.966},
  {"name":"Brassall","slug":"brassall","lga":"Ipswich City","state":"QLD","lat":-27.590114,"lng":152.736342,"distance":31.487},
  {"name":"Bundamba","slug":"bundamba","lga":"Ipswich City","state":"QLD","lat":-27.600851,"lng":152.810163,"distance":25.723},
  {"name":"Brookwater","slug":"brookwater","lga":"Ipswich City","state":"QLD","lat":-27.657845,"lng":152.895803,"distance":24.439},
  {"name":"Calvert","slug":"calvert","lga":"Ipswich City","state":"QLD","lat":-27.671255,"lng":152.509647,"distance":55.581},
  {"name":"Camira","slug":"camira","lga":"Ipswich City","state":"QLD","lat":-27.634565,"lng":152.920908,"distance":20.958},
  {"name":"Carole Park","slug":"carole-park","lga":"Ipswich City","state":"QLD","lat":-27.621178,"lng":152.92946,"distance":19.252},
  {"name":"Churchill","slug":"churchill","lga":"Ipswich City","state":"QLD","lat":-27.637684,"lng":152.750365,"distance":32.899},
  {"name":"Chuwar","slug":"chuwar","lga":"Ipswich City","state":"QLD","lat":-27.566197,"lng":152.778471,"distance":26.605},
  {"name":"Collingwood Park","slug":"collingwood-park","lga":"Ipswich City","state":"QLD","lat":-27.622169,"lng":152.855249,"distance":23.802},
  {"name":"Coalfalls","slug":"coalfalls","lga":"Ipswich City","state":"QLD","lat":-27.60637,"lng":152.743448,"distance":31.671},
  {"name":"Muirlea","slug":"muirlea","lga":"Ipswich City","state":"QLD","lat":-27.571,"lng":152.733447,"distance":30.919},
  {"name":"Flinders View","slug":"flinders-view","lga":"Ipswich City","state":"QLD","lat":-27.651327,"lng":152.775374,"distance":31.826},
  {"name":"North Ipswich","slug":"north-ipswich","lga":"Ipswich City","state":"QLD","lat":-27.593979,"lng":152.760852,"distance":29.508},
  {"name":"New Chum","slug":"new-chum","lga":"Ipswich City","state":"QLD","lat":-27.617957,"lng":152.832743,"distance":25.11},
  {"name":"Newtown","slug":"newtown","lga":"Ipswich City","state":"QLD","lat":-27.616314,"lng":152.776746,"distance":29.417},
  {"name":"Mount Forbes","slug":"mount-forbes","lga":"Ipswich City","state":"QLD","lat":-27.716518,"lng":152.613676,"distance":48.963},
  {"name":"North Booval","slug":"north-booval","lga":"Ipswich City","state":"QLD","lat":-27.598853,"lng":152.790219,"distance":27.255},
  {"name":"Deebing Heights","slug":"deebing-heights","lga":"Ipswich City","state":"QLD","lat":-27.687189,"lng":152.758872,"distance":35.656},
  {"name":"Mount Walker West","slug":"mount-walker-west","lga":"Ipswich City","state":"QLD","lat":-27.766767,"lng":152.487133,"distance":62.471},
  {"name":"Jeebropilly","slug":"jeebropilly","lga":"Ipswich City","state":"QLD","lat":-27.650906,"lng":152.655932,"distance":41.617},
  {"name":"Gailes","slug":"gailes","lga":"Ipswich City","state":"QLD","lat":-27.611509,"lng":152.913379,"distance":19.193},
  {"name":"Dinmore","slug":"dinmore","lga":"Ipswich City","state":"QLD","lat":-27.596515,"lng":152.833114,"distance":23.597},
  {"name":"Haigslea","slug":"haigslea","lga":"Ipswich City","state":"QLD","lat":-27.570933,"lng":152.633378,"distance":40.29},
  {"name":"Goolman","slug":"goolman","lga":"Ipswich City","state":"QLD","lat":-27.735156,"lng":152.767936,"distance":38.848},
  {"name":"Eastern Heights","slug":"eastern-heights","lga":"Ipswich City","state":"QLD","lat":-27.626385,"lng":152.774192,"distance":30.253},
  {"name":"Ebbw Vale","slug":"ebbw-vale","lga":"Ipswich City","state":"QLD","lat":-27.607728,"lng":152.824865,"distance":24.996},
  {"name":"Ebenezer","slug":"ebenezer","lga":"Ipswich City","state":"QLD","lat":-27.680614,"lng":152.616751,"distance":46.601},
  {"name":"Goodna","slug":"goodna","lga":"Ipswich City","state":"QLD","lat":-27.611099,"lng":152.893015,"distance":20.381},
  {"name":"East Ipswich","slug":"east-ipswich","lga":"Ipswich City","state":"QLD","lat":-27.607753,"lng":152.776439,"distance":28.931},
  {"name":"Ipswich","slug":"ipswich","lga":"Ipswich City","state":"QLD","lat":-27.622857,"lng":152.760331,"distance":31.17},
  {"name":"Ironbark","slug":"ironbark","lga":"Ipswich City","state":"QLD","lat":-27.556437,"lng":152.67167,"distance":36.215},
  {"name":"Grandchester","slug":"grandchester","lga":"Ipswich City","state":"QLD","lat":-27.676106,"lng":152.453457,"distance":60.902},
  {"name":"Leichhardt","slug":"leichhardt","lga":"Ipswich City","state":"QLD","lat":-27.623133,"lng":152.733955,"distance":33.401},
  {"name":"South Ripley","slug":"south-ripley","lga":"Ipswich City","state":"QLD","lat":-27.724225,"lng":152.819164,"distance":34.76},
  {"name":"Tallegalla","slug":"tallegalla","lga":"Ipswich City","state":"QLD","lat":-27.589457,"lng":152.552368,"distance":48.545},
  {"name":"Swanbank","slug":"swanbank","lga":"Ipswich City","state":"QLD","lat":-27.660449,"lng":152.817843,"distance":29.415},
  {"name":"Lanefield","slug":"lanefield","lga":"Ipswich City","state":"QLD","lat":-27.654086,"lng":152.551309,"distance":51.052},
  {"name":"Karalee","slug":"karalee","lga":"Ipswich City","state":"QLD","lat":-27.560894,"lng":152.825499,"distance":22.154},
  {"name":"Karrabin","slug":"karrabin","lga":"Ipswich City","state":"QLD","lat":-27.59614,"lng":152.704746,"distance":34.604},
  {"name":"Marburg","slug":"marburg","lga":"Ipswich City","state":"QLD","lat":-27.567635,"lng":152.58917,"distance":44.411},
  {"name":"Lower Mount Walker","slug":"lower-mount-walker","lga":"Ipswich City","state":"QLD","lat":-27.71541,"lng":152.529188,"distance":56.017},
  {"name":"Moores Pocket","slug":"moores-pocket","lga":"Ipswich City","state":"QLD","lat":-27.599798,"lng":152.782666,"distance":27.947},
  {"name":"Mount Mort","slug":"mount-mort","lga":"Ipswich City","state":"QLD","lat":-27.776728,"lng":152.433306,"distance":67.592},
  {"name":"Mutdapilly","slug":"mutdapilly","lga":"Ipswich City","state":"QLD","lat":-27.726847,"lng":152.66279,"distance":45.725},
  {"name":"Mount Marrow","slug":"mount-marrow","lga":"Ipswich City","state":"QLD","lat":-27.598367,"lng":152.622321,"distance":42.261},
  {"name":"North Tivoli","slug":"north-tivoli","lga":"Ipswich City","state":"QLD","lat":-27.579521,"lng":152.789576,"distance":26.253},
  {"name":"Rosewood","slug":"rosewood","lga":"Ipswich City","state":"QLD","lat":-27.638738,"lng":152.592872,"distance":46.613},
  {"name":"Redbank Plains","slug":"redbank-plains","lga":"Ipswich City","state":"QLD","lat":-27.651722,"lng":152.85222,"distance":26.418},
  {"name":"Redbank","slug":"redbank","lga":"Ipswich City","state":"QLD","lat":-27.602653,"lng":152.873553,"distance":20.996},
  {"name":"Woodend","slug":"woodend","lga":"Ipswich City","state":"QLD","lat":-27.60554,"lng":152.753036,"distance":30.797},
  {"name":"White Rock","slug":"white-rock","lga":"Ipswich City","state":"QLD","lat":-27.694364,"lng":152.84902,"distance":30.356},
  {"name":"Woolshed","slug":"woolshed","lga":"Ipswich City","state":"QLD","lat":-27.603511,"lng":152.504255,"distance":53.54},
  {"name":"One Mile","slug":"one-mile","lga":"Ipswich City","state":"QLD","lat":-27.63456,"lng":152.74022,"distance":33.541},
  {"name":"Yamanto","slug":"yamanto","lga":"Ipswich City","state":"QLD","lat":-27.653096,"lng":152.740842,"distance":34.65},
  {"name":"Walloon","slug":"walloon","lga":"Ipswich City","state":"QLD","lat":-27.602324,"lng":152.663263,"distance":38.641},
  {"name":"Willowbank","slug":"willowbank","lga":"Ipswich City","state":"QLD","lat":-27.682156,"lng":152.674073,"distance":41.895},
  {"name":"Pine Mountain","slug":"pine-mountain","lga":"Ipswich City","state":"QLD","lat":-27.536096,"lng":152.716952,"distance":31.322},
  {"name":"Purga","slug":"purga","lga":"Ipswich City","state":"QLD","lat":-27.703651,"lng":152.71649,"distance":40.0},
  {"name":"Raceview","slug":"raceview","lga":"Ipswich City","state":"QLD","lat":-27.639047,"lng":152.778026,"distance":30.776},
  {"name":"Ripley","slug":"ripley","lga":"Ipswich City","state":"QLD","lat":-27.671591,"lng":152.784111,"distance":32.655},
  {"name":"Riverview","slug":"riverview","lga":"Ipswich City","state":"QLD","lat":-27.591473,"lng":152.841619,"distance":22.59},
  {"name":"Sadliers Crossing","slug":"sadliers-crossing","lga":"Ipswich City","state":"QLD","lat":-27.613494,"lng":152.745172,"distance":31.907},
  {"name":"Tivoli","slug":"tivoli","lga":"Ipswich City","state":"QLD","lat":-27.586694,"lng":152.773508,"distance":28.027},
  {"name":"Peak Crossing","slug":"peak-crossing","lga":"Ipswich City","state":"QLD","lat":-27.775698,"lng":152.77531,"distance":41.916},
  {"name":"Spring Mountain","slug":"spring-mountain","lga":"Ipswich City","state":"QLD","lat":-27.705643,"lng":152.881039,"distance":29.754},
  {"name":"Springfield Central","slug":"springfield-central","lga":"Ipswich City","state":"QLD","lat":-27.681003,"lng":152.903609,"distance":26.299},
  {"name":"Springfield Lakes","slug":"springfield-lakes","lga":"Ipswich City","state":"QLD","lat":-27.685436,"lng":152.91791,"distance":26.134},
  {"name":"Springfield","slug":"springfield","lga":"Ipswich City","state":"QLD","lat":-27.652534,"lng":152.910054,"distance":23.219},
  {"name":"Silkstone","slug":"silkstone","lga":"Ipswich City","state":"QLD","lat":-27.622372,"lng":152.789238,"distance":28.785},
  {"name":"Thagoona","slug":"thagoona","lga":"Ipswich City","state":"QLD","lat":-27.626506,"lng":152.63178,"distance":42.552},
  {"name":"The Bluff","slug":"the-bluff","lga":"Ipswich City","state":"QLD","lat":-27.613871,"lng":152.532566,"distance":51.202},
  {"name":"West Ipswich","slug":"west-ipswich","lga":"Ipswich City","state":"QLD","lat":-27.620047,"lng":152.748579,"distance":31.987},
  {"name":"Wulkuraka","slug":"wulkuraka","lga":"Ipswich City","state":"QLD","lat":-27.613171,"lng":152.72699,"distance":33.458},
  {"name":"Bahrs Scrub","slug":"bahrs-scrub","lga":"Logan City","state":"QLD","lat":-27.738749,"lng":153.171587,"distance":33.126},
  {"name":"Bannockburn","slug":"bannockburn","lga":"Logan City","state":"QLD","lat":-27.759853,"lng":153.192152,"distance":36.125},
  {"name":"Belivah","slug":"belivah","lga":"Logan City","state":"QLD","lat":-27.758196,"lng":153.174986,"distance":35.217},
  {"name":"Beenleigh","slug":"beenleigh","lga":"Logan City","state":"QLD","lat":-27.715099,"lng":153.193765,"distance":31.877},
  {"name":"Berrinba","slug":"berrinba","lga":"Logan City","state":"QLD","lat":-27.659005,"lng":153.081441,"distance":21.692},
  {"name":"Bethania","slug":"bethania","lga":"Logan City","state":"QLD","lat":-27.687077,"lng":153.156609,"distance":27.356},
  {"name":"Boronia Heights","slug":"boronia-heights","lga":"Logan City","state":"QLD","lat":-27.688498,"lng":153.019645,"distance":24.24},
  {"name":"Buccan","slug":"buccan","lga":"Logan City","state":"QLD","lat":-27.740118,"lng":153.138405,"distance":31.975},
  {"name":"Browns Plains","slug":"browns-plains","lga":"Logan City","state":"QLD","lat":-27.662214,"lng":153.054053,"distance":21.513},
  {"name":"Carbrook","slug":"carbrook","lga":"Logan City","state":"QLD","lat":-27.673788,"lng":153.256285,"distance":32.127},
  {"name":"Cedar Creek","slug":"cedar-creek","lga":"Logan City","state":"QLD","lat":-27.818058,"lng":153.160069,"distance":40.826},
  {"name":"Cedar Grove","slug":"cedar-grove","lga":"Logan City","state":"QLD","lat":-27.859027,"lng":152.975021,"distance":43.414},
  {"name":"Cedar Vale","slug":"cedar-vale","lga":"Logan City","state":"QLD","lat":-27.880738,"lng":153.017608,"distance":45.544},
  {"name":"Chambers Flat","slug":"chambers-flat","lga":"Logan City","state":"QLD","lat":-27.747777,"lng":153.078482,"distance":31.251},
  {"name":"Flinders Lakes","slug":"flinders-lakes","lga":"Logan City","state":"QLD","lat":-27.829277,"lng":152.888933,"distance":42.04},
  {"name":"Mount Warren Park","slug":"mount-warren-park","lga":"Logan City","state":"QLD","lat":-27.731045,"lng":153.205402,"distance":33.984},
  {"name":"North Maclean","slug":"north-maclean","lga":"Logan City","state":"QLD","lat":-27.767082,"lng":152.996569,"distance":33.063},
  {"name":"New Beith","slug":"new-beith","lga":"Logan City","state":"QLD","lat":-27.75977,"lng":152.941295,"distance":33.18},
  {"name":"Cornubia","slug":"cornubia","lga":"Logan City","state":"QLD","lat":-27.66023,"lng":153.211586,"distance":28.008},
  {"name":"Monarch Glen","slug":"monarch-glen","lga":"Logan City","state":"QLD","lat":-27.813962,"lng":152.917721,"distance":39.583},
  {"name":"Eagleby","slug":"eagleby","lga":"Logan City","state":"QLD","lat":-27.69851,"lng":153.219365,"distance":31.784},
  {"name":"Edens Landing","slug":"edens-landing","lga":"Logan City","state":"QLD","lat":-27.702894,"lng":153.168597,"distance":29.46},
  {"name":"Flagstone","slug":"flagstone","lga":"Logan City","state":"QLD","lat":-27.810141,"lng":152.948284,"distance":38.469},
  {"name":"Daisy Hill","slug":"daisy-hill","lga":"Logan City","state":"QLD","lat":-27.63021,"lng":153.157777,"distance":22.084},
  {"name":"Greenbank","slug":"greenbank","lga":"Logan City","state":"QLD","lat":-27.701073,"lng":152.959866,"distance":26.425},
  {"name":"Holmview","slug":"holmview","lga":"Logan City","state":"QLD","lat":-27.715564,"lng":153.17097,"distance":30.807},
  {"name":"Jimboomba","slug":"jimboomba","lga":"Logan City","state":"QLD","lat":-27.834168,"lng":153.044453,"distance":40.422},
  {"name":"Crestmead","slug":"crestmead","lga":"Logan City","state":"QLD","lat":-27.687965,"lng":153.08478,"distance":24.883},
  {"name":"Forestdale","slug":"forestdale","lga":"Logan City","state":"QLD","lat":-27.663358,"lng":153.003885,"distance":21.551},
  {"name":"Glenlogan","slug":"glenlogan","lga":"Logan City","state":"QLD","lat":-27.833992,"lng":153.001579,"distance":40.424},
  {"name":"Heritage Park","slug":"heritage-park","lga":"Logan City","state":"QLD","lat":-27.68245,"lng":153.061289,"distance":23.834},
  {"name":"Hillcrest","slug":"hillcrest","lga":"Logan City","state":"QLD","lat":-27.668403,"lng":153.026293,"distance":22.008},
  {"name":"Kingston","slug":"kingston","lga":"Logan City","state":"QLD","lat":-27.659549,"lng":153.112949,"distance":22.746},
  {"name":"South Maclean","slug":"south-maclean","lga":"Logan City","state":"QLD","lat":-27.795654,"lng":152.993106,"distance":36.247},
  {"name":"Tamborine","slug":"tamborine","lga":"Logan City","state":"QLD","lat":-27.847399,"lng":153.108425,"distance":42.643},
  {"name":"Underwood","slug":"underwood","lga":"Logan City","state":"QLD","lat":-27.608775,"lng":153.111333,"distance":17.599},
  {"name":"Undullah","slug":"undullah","lga":"Logan City","state":"QLD","lat":-27.826161,"lng":152.846178,"distance":43.257},
  {"name":"Kagaru","slug":"kagaru","lga":"Logan City","state":"QLD","lat":-27.84091,"lng":152.911887,"distance":42.614},
  {"name":"Logan Central","slug":"logan-central","lga":"Logan City","state":"QLD","lat":-27.643832,"lng":153.107176,"distance":20.919},
  {"name":"Logan Reserve","slug":"logan-reserve","lga":"Logan City","state":"QLD","lat":-27.717365,"lng":153.10722,"distance":28.606},
  {"name":"Logan Village","slug":"logan-village","lga":"Logan City","state":"QLD","lat":-27.78493,"lng":153.11599,"distance":36.055},
  {"name":"Loganholme","slug":"loganholme","lga":"Logan City","state":"QLD","lat":-27.68408,"lng":153.186592,"distance":28.603},
  {"name":"Loganlea","slug":"loganlea","lga":"Logan City","state":"QLD","lat":-27.676775,"lng":153.132611,"distance":25.273},
  {"name":"Lyons","slug":"lyons","lga":"Logan City","state":"QLD","lat":-27.772662,"lng":152.864905,"distance":37.099},
  {"name":"Marsden","slug":"marsden","lga":"Logan City","state":"QLD","lat":-27.674342,"lng":153.098263,"distance":23.789},
  {"name":"Munruben","slug":"munruben","lga":"Logan City","state":"QLD","lat":-27.746572,"lng":153.031357,"distance":30.676},
  {"name":"Meadowbrook","slug":"meadowbrook","lga":"Logan City","state":"QLD","lat":-27.663926,"lng":153.144749,"distance":24.543},
  {"name":"Mundoolun","slug":"mundoolun","lga":"Logan City","state":"QLD","lat":-27.89941,"lng":153.071509,"distance":47.827},
  {"name":"Veresdale Scrub","slug":"veresdale-scrub","lga":"Logan City","state":"QLD","lat":-27.904859,"lng":153.006905,"distance":48.244},
  {"name":"Woodhill","slug":"woodhill","lga":"Logan City","state":"QLD","lat":-27.887332,"lng":152.96905,"distance":46.598},
  {"name":"Woodridge","slug":"woodridge","lga":"Logan City","state":"QLD","lat":-27.628453,"lng":153.105687,"distance":19.299},
  {"name":"Regents Park","slug":"regents-park","lga":"Logan City","state":"QLD","lat":-27.676672,"lng":153.041546,"distance":22.982},
  {"name":"Wolffdene","slug":"wolffdene","lga":"Logan City","state":"QLD","lat":-27.78117,"lng":153.173149,"distance":37.471},
  {"name":"Waterford West","slug":"waterford-west","lga":"Logan City","state":"QLD","lat":-27.692503,"lng":153.127056,"distance":26.653},
  {"name":"Waterford","slug":"waterford","lga":"Logan City","state":"QLD","lat":-27.708403,"lng":153.142063,"distance":28.852},
  {"name":"Veresdale","slug":"veresdale","lga":"Logan City","state":"QLD","lat":-27.909575,"lng":152.977224,"distance":48.962},
  {"name":"Yarrabilba","slug":"yarrabilba","lga":"Logan City","state":"QLD","lat":-27.823318,"lng":153.123768,"distance":40.367},
  {"name":"Windaroo","slug":"windaroo","lga":"Logan City","state":"QLD","lat":-27.745862,"lng":153.193415,"distance":34.812},
  {"name":"Silverbark Ridge","slug":"silverbark-ridge","lga":"Logan City","state":"QLD","lat":-27.789128,"lng":152.925687,"distance":36.721},
  {"name":"Slacks Creek","slug":"slacks-creek","lga":"Logan City","state":"QLD","lat":-27.641287,"lng":153.133833,"distance":21.827},
  {"name":"Riverbend","slug":"riverbend","lga":"Logan City","state":"QLD","lat":-27.828968,"lng":152.970589,"distance":40.163},
  {"name":"Priestdale","slug":"priestdale","lga":"Logan City","state":"QLD","lat":-27.607258,"lng":153.163953,"distance":20.497},
  {"name":"Park Ridge South","slug":"park-ridge-south","lga":"Logan City","state":"QLD","lat":-27.727444,"lng":153.039416,"distance":28.585},
  {"name":"Park Ridge","slug":"park-ridge","lga":"Logan City","state":"QLD","lat":-27.705399,"lng":153.062315,"distance":26.365},
  {"name":"Shailer Park","slug":"shailer-park","lga":"Logan City","state":"QLD","lat":-27.64973,"lng":153.177499,"distance":24.981},
  {"name":"Rochedale South","slug":"rochedale-south","lga":"Logan City","state":"QLD","lat":-27.599562,"lng":153.13166,"distance":17.82},
  {"name":"Stockleigh","slug":"stockleigh","lga":"Logan City","state":"QLD","lat":-27.776779,"lng":153.057619,"distance":34.168},
  {"name":"Tanah Merah","slug":"tanah-merah","lga":"Logan City","state":"QLD","lat":-27.671695,"lng":153.170314,"distance":26.574},
  {"name":"Springwood","slug":"springwood","lga":"Logan City","state":"QLD","lat":-27.620219,"lng":153.138251,"distance":20.068}
]
